{
  "domestic": [
    {
      "id": "d1",
      "type": "domestic",
      "name": "SUNGUR TARIM",
      "city": "Tekirdağ",
      "country": "Türkiye",
      "address": "Çorlu, Tekirdağ",
      "phone": "",
      "email": "info@sungurtarim.com",
      "website": "https://sungurtarim.com",
      "latitude": "41.1592",
      "longitude": "27.8000",
      "image": ""
    },
    {
      "id": "d2",
      "type": "domestic",
      "name": "BAYRAKTAR MAKİNA",
      "city": "Edirne",
      "country": "Türkiye",
      "address": "Edirne",
      "phone": "",
      "email": "",
      "website": "",
      "latitude": "41.6749",
      "longitude": "26.5835",
      "image": ""
    },
    {
      "id": "d3",
      "type": "domestic",
      "name": "ASGÜN TRAKTÖR",
      "city": "Balıkesir",
      "country": "Türkiye",
      "address": "Yeni Mh. Bursa Asfaltı 1. KM, Susurluk / Balıkesir",
      "phone": "0 850 441 45 55",
      "email": "info@asguntraktor.com",
      "website": "https://www.asguntraktor.com",
      "latitude": "39.9139",
      "longitude": "28.1569",
      "image": ""
    },
    {
      "id": "d4",
      "type": "domestic",
      "name": "ÇOŞ-KAR",
      "city": "Samsun",
      "country": "Türkiye",
      "address": "Galericiler Sitesi No:6-8, Fevzi Çakmak Mah. Bafra/Samsun",
      "phone": "+90 532 786 50 45",
      "email": "",
      "website": "",
      "latitude": "41.5521",
      "longitude": "35.9063",
      "image": ""
    },
    {
      "id": "d5",
      "type": "domestic",
      "name": "KOÇOĞULLARI",
      "city": "Çankırı",
      "country": "Türkiye",
      "address": "Çankırı",
      "phone": "",
      "email": "",
      "website": "",
      "latitude": "40.6002",
      "longitude": "33.6162",
      "image": ""
    },
    {
      "id": "d6",
      "type": "domestic",
      "name": "GÜLHAN TARIM",
      "city": "Adana",
      "country": "Türkiye",
      "address": "Havutlu Mah. Karataş Bulvarı Saimbey Mevkii No: 883/375, Yüreğir/Adana",
      "phone": "+90 322 321 65 95",
      "email": "",
      "website": "https://www.gulhantarim.com",
      "latitude": "36.9920",
      "longitude": "35.3540",
      "image": ""
    },
    {
      "id": "d7",
      "type": "domestic",
      "name": "DEMİRELLER",
      "city": "Iğdır",
      "country": "Türkiye",
      "address": "Iğdır",
      "phone": "",
      "email": "",
      "website": "",
      "latitude": "39.9237",
      "longitude": "44.0450",
      "image": ""
    }
  ],
  "international": [
    {
      "id": "i1",
      "type": "international",
      "name": "TARIM OSIYO MCHJ",
      "city": "Taşkent",
      "country": "Özbekistan",
      "address": "Taşkent, Özbekistan",
      "phone": "",
      "email": "",
      "website": "",
      "latitude": "41.3111",
      "longitude": "69.2406",
      "image": ""
    },
    {
      "id": "i2",
      "type": "international",
      "name": "AGROMAX TECHNIC MCHJ",
      "city": "Taşkent",
      "country": "Özbekistan",
      "address": "Çilanzar Bölgesi, Çilanzar Caddesi No:4, Taşkent",
      "phone": "+998 94 629 04 44",
      "email": "info@agromaxtechnic.uz",
      "website": "https://agromaxtechnic.uz",
      "latitude": "41.2857",
      "longitude": "69.2044",
      "image": ""
    },
    {
      "id": "i3",
      "type": "international",
      "name": "LVKE INDUSTRIAL DEVELOPMENT",
      "city": "Taşkent",
      "country": "Özbekistan",
      "address": "Taşkent, Özbekistan",
      "phone": "",
      "email": "",
      "website": "",
      "latitude": "41.3111",
      "longitude": "69.2406",
      "image": ""
    },
    {
      "id": "i4",
      "type": "international",
      "name": "AZERTENIKA",
      "city": "Bakü",
      "country": "Azerbaycan",
      "address": "Bakü, Azerbaycan",
      "phone": "",
      "email": "",
      "website": "",
      "latitude": "40.4093",
      "longitude": "49.8671",
      "image": ""
    }
  ],
  "certificates": [
    {
      "id": "1",
      "title": "ISO 9001 Sertifikası",
      "description": "Kalite Yönetim Sistemi Sertifikası",
      "image": "/images/certificates/image-1764296309617-100355017.png",
      "file": "",
      "date": "2024-01-15"
    }
  ]
}
